[
 {
   "Name": "Duluth Light Station",
   "State": "Minnesota",
   "District": "11th",
   "lat": 46.78333333,
   "lng": 92.075
 },
 {
   "Name": "Duluth North Pier Light Station",
   "State": "Minnesota",
   "District": "11th",
   "lat": 46.78194444,
   "lng": 92.08916667
 },
 {
   "Name": "Duluth Range Front Light Station",
   "State": "Minnesota",
   "District": "11th",
   "lat": 46.78027778,
   "lng": 92.08805556
 },
 {
   "Name": "Duluth Range Rear Light Station",
   "State": "Minnesota",
   "District": "11th",
   "lat": 46.78,
   "lng": 92.08888889
 },
 {
   "Name": "St. Louis River Pierhead Light Station",
   "State": "Minnesota",
   "District": "11th",
   "lat": 46.70972222,
   "lng": 92.0225
 },
 {
   "Name": "Two Harbors Light Station",
   "State": "Minnesota",
   "District": "11th",
   "lat": 47.01388889,
   "lng": 91.66361111
 },
 {
   "Name": "Two Harbors Breakwater Light Station",
   "State": "Minnesota",
   "District": "11th",
   "lat": 47.0125,
   "lng": 91.66916667
 },
 {
   "Name": "Alpena Light Station",
   "State": "Michigan",
   "District": "9th",
   "lat": 45.06083333,
   "lng": 83.42361111
 },
 {
   "Name": "Atlantic Point Light Station",
   "State": "Michigan",
   "District": "9th",
   "lat": 47.12722222,
   "lng": 88.44055556
 },
 {
   "Name": "Au Sable Pierhead - 1873",
   "State": "Michigan",
   "District": "11th",
   "lat": 44.40777778,
   "lng": 83.3125
 },
 {
   "Name": "Au Sable Pierhead - 1910",
   "State": "Michigan",
   "District": "11th",
   "lat": 44.40722222,
   "lng": 83.32111111
 },
 {
   "Name": "Belle Isle Light Station",
   "State": "Michigan",
   "District": "11th",
   "lat": 42.34012778,
   "lng": 82.96020833
 },
 {
   "Name": "Big Bay Point Light Station",
   "State": "Michigan",
   "District": "9th",
   "lat": 46.84194444,
   "lng": 87.67972222
 },
 {
   "Name": "Big Sable Light Station",
   "State": "Michigan",
   "District": "11th",
   "lat": 46.67488889,
   "lng": 86.14375
 },
 {
   "Name": "Birch Point Range Light Station",
   "State": "Michigan",
   "District": "9th",
   "lat": 46.43408333,
   "lng": 84.52347222
 },
 {
   "Name": "Brush Point Range Light Station",
   "State": "Michigan",
   "District": "9th",
   "lat": 46.46472222,
   "lng": 84.45544444
 },
 {
   "Name": "Brush Point Rear Range Light Station",
   "State": "Michigan",
   "District": "9th",
   "lat": 46.46472222,
   "lng": 84.45544444
 },
 {
   "Name": "Cedar Point Front Range Light Station",
   "State": "Michigan",
   "District": "11th",
   "lat": 46.43855556,
   "lng": 84.50252778
 },
 {
   "Name": "Cedar River Light Station",
   "State": "Michigan",
   "District": "9th",
   "lat": 45.41027778,
   "lng": 87.35305556
 },
 {
   "Name": "Charlevoix Pierhead Light Station",
   "State": "Michigan",
   "District": "9th",
   "lat": 45.32388889,
   "lng": 85.25805556
 },
 {
   "Name": "Cheboygan Crib Light Station",
   "State": "Michigan",
   "District": "9th",
   "lat": 45.66333333,
   "lng": 84.45944444
 },
 {
   "Name": "Cheboygan Light Station - 1910",
   "State": "Michigan",
   "District": "9th",
   "lat": 45.66916667,
   "lng": 84.41972222
 },
 {
   "Name": "Cheboygan River Front Range Light Station",
   "State": "Michigan",
   "District": "11th",
   "lat": 45.64758611,
   "lng": 84.47253889
 },
 {
   "Name": "Cheboygan River Rear Range Light Station",
   "State": "Michigan",
   "District": "11th",
   "lat": 45.64501111,
   "lng": 84.47489722
 },
 {
   "Name": "Cole Creek Light Station",
   "State": "Michigan",
   "District": "9th",
   "lat": 47.12916667,
   "lng": 88.62194444
 },
 {
   "Name": "Copper Harbor Front Range Light Station",
   "State": "Michigan",
   "District": "9th",
   "lat": 47.46888889,
   "lng": 87.86638889
 },
 {
   "Name": "Copper Harbor Light Station - 1910",
   "State": "Michigan",
   "District": "9th",
   "lat": 47.47416667,
   "lng": 87.86
 },
 {
   "Name": "Copper Harbor Rear Range Light Station",
   "State": "Michigan",
   "District": "9th",
   "lat": 47.46888889,
   "lng": 87.86638889
 },
 {
   "Name": "Crisp Point Light Station",
   "State": "Michigan",
   "District": "11th",
   "lat": 46.75294444,
   "lng": 85.25705556
 },
 {
   "Name": "Detour Reef Light Station - 1909",
   "State": "Michigan",
   "District": "9th",
   "lat": 45.956025,
   "lng": 83.91540556
 },
 {
   "Name": "Detroit River Light Station - 1885",
   "State": "Michigan",
   "District": "10th",
   "lat": 42,
   "lng": 83.13944444
 },
 {
   "Name": "Detroit River Light Station - 1909",
   "State": "Michigan",
   "District": "10th",
   "lat": 42.0025,
   "lng": 83.14194444
 },
 {
   "Name": "Eagle Harbor Front Range Light Station",
   "State": "Michigan",
   "District": "9th",
   "lat": 47.45611111,
   "lng": 88.15111111
 },
 {
   "Name": "Eagle Harbor Light Station - 1910",
   "State": "Michigan",
   "District": "9th",
   "lat": 47.46111111,
   "lng": 88.15861111
 },
 {
   "Name": "Eagle Harbor Rear Range Light Station",
   "State": "Michigan",
   "District": "9th",
   "lat": 47.45611111,
   "lng": 88.15111111
 },
 {
   "Name": "Ecorse Front Beacon Light Station",
   "State": "Michigan",
   "District": "10th",
   "lat": 42.24583333,
   "lng": 83.13
 },
 {
   "Name": "Ecorse Rear Beacon Light Station",
   "State": "Michigan",
   "District": "10th",
   "lat": 42.2475,
   "lng": 83.13027778
 },
 {
   "Name": "Fort Gratiot Light Station - 1912",
   "State": "Michigan",
   "District": "9th",
   "lat": 43.00623333,
   "lng": 82.42261667
 },
 {
   "Name": "Forty Mile Point Light Station",
   "State": "Michigan",
   "District": "9th",
   "lat": 45.65305556,
   "lng": 83.91333333
 },
 {
   "Name": "Frying Pan Island Light Station",
   "State": "Michigan",
   "District": "11th",
   "lat": 45.98693611,
   "lng": 83.89570833
 },
 {
   "Name": "Grand Island Harbor Front Range Light Station",
   "State": "Michigan",
   "District": "4th",
   "lat": 46.43888889,
   "lng": 66.69166667
 },
 {
   "Name": "Grand Island Light Station",
   "State": "Michigan",
   "District": "11th",
   "lat": 46.55997222,
   "lng": 86.68155556
 },
 {
   "Name": "Grand Marais Harbor of Refuge Front Range",
   "State": "Michigan",
   "District": "11th",
   "lat": 46.68555556,
   "lng": 85.98111111
 },
 {
   "Name": "Grand Traverse Bay Light Station - 1909",
   "State": "Michigan",
   "District": "9th",
   "lat": 45.21083333,
   "lng": 85.54083333
 },
 {
   "Name": "Grande Pointe au Sable Light Station",
   "State": "Michigan",
   "District": "9th",
   "lat": 44.05805556,
   "lng": 86.51472222
 },
 {
   "Name": "Granite Island Light Station",
   "State": "Michigan",
   "District": "11th",
   "lat": 46.72088889,
   "lng": 87.41185
 },
 {
   "Name": "Grassy Island North Channel Range Front Beacon",
   "State": "Michigan",
   "District": "10th",
   "lat": 42.22916667,
   "lng": 83.13583333
 },
 {
   "Name": "Grassy Island North Channel Range Rear Beacon",
   "State": "Michigan",
   "District": "10th",
   "lat": 42.22444444,
   "lng": 83.13916667
 },
 {
   "Name": "Grassy Island South Channel Range Front Beacon",
   "State": "Michigan",
   "District": "10th",
   "lat": 42.22,
   "lng": 83.13277778
 },
 {
   "Name": "Grassy Island South Channel Range Rear Beacon",
   "State": "Michigan",
   "District": "10th",
   "lat": 42.22444444,
   "lng": 83.13277778
 },
 {
   "Name": "Grosse Isle North Channel Front Beacon",
   "State": "Michigan",
   "District": "10th",
   "lat": 42.1675,
   "lng": 83.13944444
 },
 {
   "Name": "Grosse Isle North Channel Rear Beacon",
   "State": "Michigan",
   "District": "10th",
   "lat": 42.16388889,
   "lng": 83.14055556
 },
 {
   "Name": "Grosse Isle South Channel Front Beacon",
   "State": "Michigan",
   "District": "10th",
   "lat": 42.18472222,
   "lng": 83.14166667
 },
 {
   "Name": "Grosse Isle South Channel Rear Beacon",
   "State": "Michigan",
   "District": "10th",
   "lat": 42.18861111,
   "lng": 83.14166667
 },
 {
   "Name": "Gull Rock Light Station",
   "State": "Michigan",
   "District": "9th",
   "lat": 47.41722222,
   "lng": 87.66388889
 },
 {
   "Name": "Harrington Island Light Station",
   "State": "Michigan",
   "District": "9th",
   "lat": 47.15833333,
   "lng": 88.63416667
 },
 {
   "Name": "Hay Lake Channel Range No 10",
   "State": "Michigan",
   "District": "11th",
   "lat": 46.32497222,
   "lng": 84.17547222
 },
 {
   "Name": "High Point Light Station",
   "State": "Michigan",
   "District": "9th",
   "lat": 47.16694444,
   "lng": 88.63777778
 },
 {
   "Name": "Holland Pierhead Front Range Light Station",
   "State": "Michigan",
   "District": "9th",
   "lat": 42.77333333,
   "lng": 86.21666667
 },
 {
   "Name": "Holland Pierhead Rear Range Light Station",
   "State": "Michigan",
   "District": "9th",
   "lat": 42.77333333,
   "lng": 86.21666667
 },
 {
   "Name": "Huron Island Light Station",
   "State": "Michigan",
   "District": "9th",
   "lat": 46.96333333,
   "lng": 87.99861111
 },
 {
   "Name": "Isle Aux Peches Front Range Light Station",
   "State": "Michigan",
   "District": "11th",
   "lat": 42.361,
   "lng": 82.90819444
 },
 {
   "Name": "Isle Royale Light Station",
   "State": "Michigan",
   "District": "9th",
   "lat": 47.94833333,
   "lng": 88.76027778
 },
 {
   "Name": "Kalamazoo Light Station - 1910",
   "State": "Michigan",
   "District": "9th",
   "lat": 42.66666667,
   "lng": 86.21388889
 },
 {
   "Name": "Lily Pond North Light Station",
   "State": "Michigan",
   "District": "9th",
   "lat": 47.21694444,
   "lng": 88.61805556
 },
 {
   "Name": "Lily Pond South Light Station",
   "State": "Michigan",
   "District": "9th",
   "lat": 47.21305556,
   "lng": 88.61783333
 },
 {
   "Name": "Little Rapids Cut Light No 27",
   "State": "Michigan",
   "District": "11th",
   "lat": 46.49230556,
   "lng": 84.30633333
 },
 {
   "Name": "Little Sable Light Station",
   "State": "Michigan",
   "District": "12th",
   "lat": 43.65277778,
   "lng": 86.53972222
 },
 {
   "Name": "Little Traverse Light Station",
   "State": "Michigan",
   "District": "9th",
   "lat": 45.41861111,
   "lng": 84.96805556
 },
 {
   "Name": "Ludington North Breakwater Light Station",
   "State": "Michigan",
   "District": "9th",
   "lat": 43.95416667,
   "lng": 86.46638889
 },
 {
   "Name": "Ludington Pierhead Light Station",
   "State": "Michigan",
   "District": "9th",
   "lat": 43.95277778,
   "lng": 86.46277778
 },
 {
   "Name": "Ludington South Breakwater Light Station",
   "State": "Michigan",
   "District": "9th",
   "lat": 43.95277778,
   "lng": 86.46666667
 },
 {
   "Name": "Mamajuda Front Range Light Station",
   "State": "Michigan",
   "District": "10th",
   "lat": 42.19333333,
   "lng": 83.13527778
 },
 {
   "Name": "Mamajuda Rear Range Light Station",
   "State": "Michigan",
   "District": "10th",
   "lat": 42.19138889,
   "lng": 83.13555556
 },
 {
   "Name": "Manitou Light Station - 1909",
   "State": "Michigan",
   "District": "9th",
   "lat": 47.41982222,
   "lng": 87.58705278
 },
 {
   "Name": "Marquette Breakwater Light Station",
   "State": "Michigan",
   "District": "9th",
   "lat": 46.5365,
   "lng": 87.37880556
 },
 {
   "Name": "Marquette Light Station - 1919",
   "State": "Michigan",
   "District": "9th",
   "lat": 46.5467,
   "lng": 87.37603333
 },
 {
   "Name": "Mendota Light Station",
   "State": "Michigan",
   "District": "9th",
   "lat": 47.37413333,
   "lng": 87.96653611
 },
 {
   "Name": "Menominee Pierhead Light Station",
   "State": "Michigan",
   "District": "9th",
   "lat": 45.09722222,
   "lng": 87.58583333
 },
 {
   "Name": "Middle Island Light Station",
   "State": "Michigan",
   "District": "9th",
   "lat": 45.19083333,
   "lng": 83.31722222
 },
 {
   "Name": "Monroe Light Station - 1885",
   "State": "Michigan",
   "District": "10th",
   "lat": 41.89111111,
   "lng": 83.33138889
 },
 {
   "Name": "Monroe Light Station - 1909",
   "State": "Michigan",
   "District": "10th",
   "lat": 41.89194444,
   "lng": 83.33138889
 },
 {
   "Name": "Munising Front Range Light Station",
   "State": "Michigan",
   "District": "9th",
   "lat": 46.41511111,
   "lng": 86.66108333
 },
 {
   "Name": "Munising Rear Range Light Station",
   "State": "Michigan",
   "District": "9th",
   "lat": 46.415,
   "lng": 86.66083333
 },
 {
   "Name": "North Manitou Light Station",
   "State": "Michigan",
   "District": "9th",
   "lat": 45.06305556,
   "lng": 85.96333333
 },
 {
   "Name": "Old Mackinac Point Light Station",
   "State": "Michigan",
   "District": "9th",
   "lat": 45.78833333,
   "lng": 84.72777778
 },
 {
   "Name": "Ontonagon Light Station - 1910",
   "State": "Michigan",
   "District": "9th",
   "lat": 46.87416667,
   "lng": 89.32555556
 },
 {
   "Name": "Ontonagon Pierhead Light-Station",
   "State": "Michigan",
   "District": "9th",
   "lat": 46.88027778,
   "lng": 89.33055556
 },
 {
   "Name": "Osceola Point Light Station",
   "State": "Michigan",
   "District": "9th",
   "lat": 47.12222222,
   "lng": 88.59166667
 },
 {
   "Name": "Passage Island Light Station - 1886",
   "State": "Michigan",
   "District": "11th",
   "lat": 48.22638889,
   "lng": 88.36055556
 },
 {
   "Name": "Passage Island Light Station - 1910",
   "State": "Michigan",
   "District": "9th",
   "lat": 48.22472222,
   "lng": 88.36555556
 },
 {
   "Name": "Petite Point Au Sable Light Station",
   "State": "Michigan",
   "District": "11th",
   "lat": 43.65277778,
   "lng": 86.55833333
 },
 {
   "Name": "Pilgrim Point Light Station",
   "State": "Michigan",
   "District": "9th",
   "lat": 47.10638889,
   "lng": 88.51611111
 },
 {
   "Name": "Pilot Island Front Range Light Station",
   "State": "Michigan",
   "District": "11th",
   "lat": 46.17627222,
   "lng": 84.13325556
 },
 {
   "Name": "Pipe Island Light Station",
   "State": "Michigan",
   "District": "11th",
   "lat": 46.01642778,
   "lng": 83.899325
 },
 {
   "Name": "Point Iroquois Light Station - 1909",
   "State": "Michigan",
   "District": "11th",
   "lat": 46.48445556,
   "lng": 84.63208056
 },
 {
   "Name": "Port Austin Reef Light Station",
   "State": "Michigan",
   "District": "11th",
   "lat": 44.08226944,
   "lng": 82.9821
 },
 {
   "Name": "Port Sanilac Light Station",
   "State": "Michigan",
   "District": "11th",
   "lat": 43.42888889,
   "lng": 82.53
 },
 {
   "Name": "Portage Lake Ship Canals Breakwater East Light Station",
   "State": "Michigan",
   "District": "9th",
   "lat": 47.23444444,
   "lng": 88.63
 },
 {
   "Name": "Portage Lake Ship Canals Breakwater West Light Station",
   "State": "Michigan",
   "District": "9th",
   "lat": 47.23388889,
   "lng": 88.63166667
 },
 {
   "Name": "Portage Lake Ship Canal Light Station",
   "State": "Michigan",
   "District": "9th",
   "lat": 47.22805556,
   "lng": 88.62722222
 },
 {
   "Name": "Portage Lake Ship Canal Front Range Light Station",
   "State": "Michigan",
   "District": "9th",
   "lat": 47.19833333,
   "lng": 88.61666667
 },
 {
   "Name": "Portage Lake Ship Canals Pierhead Light Station",
   "State": "Michigan",
   "District": "9th",
   "lat": 47.23083333,
   "lng": 88.62916667
 },
 {
   "Name": "Portage Lake Ship Canal Rear Range Light Station",
   "State": "Michigan",
   "District": "9th",
   "lat": 47.2075,
   "lng": 88.61805556
 },
 {
   "Name": "Portage River Front Range Light Station",
   "State": "Michigan",
   "District": "9th",
   "lat": 46.98416667,
   "lng": 88.43472222
 },
 {
   "Name": "Portage River Light Number 0",
   "State": "Michigan",
   "District": "9th",
   "lat": 46.98916667,
   "lng": 88.43444444
 },
 {
   "Name": "Portage River Light Number 3 Front Range",
   "State": "Michigan",
   "District": "11th",
   "lat": 47.01388889,
   "lng": 88.45388889
 },
 {
   "Name": "Portage River Light Number 5 Front Range",
   "State": "Michigan",
   "District": "11th",
   "lat": 47.01222222,
   "lng": 88.45166667
 },
 {
   "Name": "Portage River Light Number 7 Front Range",
   "State": "Michigan",
   "District": "11th",
   "lat": 47.01861111,
   "lng": 88.47027778
 },
 {
   "Name": "Portage River Light Number 9 Front Range",
   "State": "Michigan",
   "District": "11th",
   "lat": 47.01777778,
   "lng": 88.47527778
 },
 {
   "Name": "Portage River Light Number 13 Front Range",
   "State": "Michigan",
   "District": "11th",
   "lat": 47.02111111,
   "lng": 88.47583333
 },
 {
   "Name": "Portage River Light Number 14 Front Range",
   "State": "Michigan",
   "District": "11th",
   "lat": 47.02611111,
   "lng": 88.47611111
 },
 {
   "Name": "Portage River Light Station - 1910",
   "State": "Michigan",
   "District": "9th",
   "lat": 45.97805556,
   "lng": 88.41388889
 },
 {
   "Name": "Portage River Rear Range Light Station",
   "State": "Michigan",
   "District": "9th",
   "lat": 46.98416667,
   "lng": 88.43472222
 },
 {
   "Name": "Presque Isle Harbor Front Range Light Station",
   "State": "Michigan",
   "District": "11th",
   "lat": 45.33777778,
   "lng": 83.48972222
 },
 {
   "Name": "Presque Isle Light Station - 1910",
   "State": "Michigan",
   "District": "11th",
   "lat": 45.35666667,
   "lng": 83.49194444
 },
 {
   "Name": "Princess Point Light Station",
   "State": "Michigan",
   "District": "11th",
   "lat": 47.01888889,
   "lng": 88.47527778
 },
 {
   "Name": "Rock Of Ages Light Station",
   "State": "Michigan",
   "District": "9th",
   "lat": 47.86659444,
   "lng": 89.31457222
 },
 {
   "Name": "Rouleau Point Front Range Light Station",
   "State": "Michigan",
   "District": "9th",
   "lat": 47.19472222,
   "lng": 88.61666667
 },
 {
   "Name": "Rouleau Point Rear Range Light Station",
   "State": "Michigan",
   "District": "9th",
   "lat": 47.19472222,
   "lng": 88.61666667
 },
 {
   "Name": "Round Island Light Station - 1909",
   "State": "Michigan",
   "District": "11th",
   "lat": 45.83743056,
   "lng": 84.61659167
 },
 {
   "Name": "Round Island in St. Marys River Light Station",
   "State": "Michigan",
   "District": "11th",
   "lat": 46.109175,
   "lng": 84.01966944
 },
 {
   "Name": "Sand Beach Harbor of Refuge E side N entrance",
   "State": "Michigan",
   "District": "11th",
   "lat": 43.85583333,
   "lng": 82.60555556
 },
 {
   "Name": "Sand Beach Harbor of Refuge N side E entrance",
   "State": "Michigan",
   "District": "11th",
   "lat": 43.84638889,
   "lng": 82.59583333
 },
 {
   "Name": "Sand Beach Harbor of Refuge S side E entrance",
   "State": "Michigan",
   "District": "11th",
   "lat": 43.84472222,
   "lng": 82.59444444
 },
 {
   "Name": "Sand Beach Harbor of Refuge W side N entrance",
   "State": "Michigan",
   "District": "11th",
   "lat": 43.85611111,
   "lng": 82.60666667
 },
 {
   "Name": "Sand Point Light Station",
   "State": "Michigan",
   "District": "9th",
   "lat": 46.78444444,
   "lng": 88.46722222
 },
 {
   "Name": "Seul Choix Pointe Light Station",
   "State": "Michigan",
   "District": "9th",
   "lat": 45.92277778,
   "lng": 85.9125
 },
 {
   "Name": "Six Mile Point Front Range Light Station",
   "State": "Michigan",
   "District": "11th",
   "lat": 46.43925,
   "lng": 84.26583333
 },
 {
   "Name": "Skillagallee Light Station - 1907",
   "State": "Michigan",
   "District": "9th",
   "lat": 45.74333333,
   "lng": 85.50861111
 },
 {
   "Name": "South Fox Island Light Station",
   "State": "Michigan",
   "District": "9th",
   "lat": 45.375,
   "lng": 85.82805556
 },
 {
   "Name": "South Haven Pierhead Light Station",
   "State": "Michigan",
   "District": "9th",
   "lat": 42.40027778,
   "lng": 86.28722222
 },
 {
   "Name": "South Manitou Light Station - 1910",
   "State": "Michigan",
   "District": "9th",
   "lat": 45.00777778,
   "lng": 86.09444444
 },
 {
   "Name": "Spectacle Reef Light Station",
   "State": "Michigan",
   "District": "9th",
   "lat": 45.77323333,
   "lng": 84.13776944
 },
 {
   "Name": "Squaw Island Light Station",
   "State": "Michigan",
   "District": "12th",
   "lat": 45.84027778,
   "lng": 85.58694444
 },
 {
   "Name": "Squaw Point Light Station",
   "State": "Michigan",
   "District": "12th",
   "lat": 45.83166667,
   "lng": 87.00472222
 },
 {
   "Name": "St. Clair Flats Canal Lower Light Station",
   "State": "Michigan",
   "District": "11th",
   "lat": 42.51936111,
   "lng": 82.68758611
 },
 {
   "Name": "St. Clair Flats Canal Upper Light Station",
   "State": "Michigan",
   "District": "11th",
   "lat": 42.53409167,
   "lng": 82.67023333
 },
 {
   "Name": "St. Helena Light Station - 1873",
   "State": "Michigan",
   "District": "11th",
   "lat": 45.85416667,
   "lng": 84.78055556
 },
 {
   "Name": "St. Helena Light Station - 1907",
   "State": "Michigan",
   "District": "9th",
   "lat": 45.85555556,
   "lng": 84.86277778
 },
 {
   "Name": "St. Joseph Pierhead, Front Range Light Station",
   "State": "Michigan",
   "District": "9th",
   "lat": 42.11555556,
   "lng": 86.49416667
 },
 {
   "Name": "St. Joseph Pierhead, Rear Range Light Station",
   "State": "Michigan",
   "District": "9th",
   "lat": 42.11555556,
   "lng": 86.49416667
 },
 {
   "Name": "St. Joseph Light Station - 1909",
   "State": "Michigan",
   "District": "9th",
   "lat": 42.10805556,
   "lng": 86.48388889
 },
 {
   "Name": "Stannard Rock Light Station",
   "State": "Michigan",
   "District": "11th",
   "lat": 47.18295833,
   "lng": 87.22500278
 },
 {
   "Name": "Sturgeon Point Light Station",
   "State": "Michigan",
   "District": "11th",
   "lat": 44.71027778,
   "lng": 83.26861111
 },
 {
   "Name": "Tawas Light Station",
   "State": "Michigan",
   "District": "11th",
   "lat": 44.25388889,
   "lng": 83.44916667
 },
 {
   "Name": "Thunder Bay Island Light Station - 1910",
   "State": "Michigan",
   "District": "11th",
   "lat": 45.0375,
   "lng": 83.19388889
 },
 {
   "Name": "Vidal Shoals Channel, Front Range Light Station",
   "State": "Michigan",
   "District": "11th",
   "lat": 46.50322222,
   "lng": 84.36830556
 },
 {
   "Name": "Waugoshance Light Station - 1907",
   "State": "Michigan",
   "District": "9th",
   "lat": 45.7875,
   "lng": 85.09194444
 },
 {
   "Name": "White Shoal Light Station - 1911",
   "State": "Michigan",
   "District": "12th",
   "lat": 45.84166667,
   "lng": 85.13555556
 },
 {
   "Name": "White Shoal Light Station - 1915",
   "State": "Michigan",
   "District": "12th",
   "lat": 45.84166667,
   "lng": 85.13555556
 },
 {
   "Name": "Whitefish Point Light Station - 1909",
   "State": "Michigan",
   "District": "11th",
   "lat": 46.77131667,
   "lng": 84.95719722
 },
 {
   "Name": "Windmill Point Front Range Light Station",
   "State": "Michigan",
   "District": "11th",
   "lat": 42.35925,
   "lng": 82.93075
 },
 {
   "Name": "Windmill Point Light Station - 1909",
   "State": "Michigan",
   "District": "11th",
   "lat": 42.35844167,
   "lng": 82.93014444
 }
]