[
    {
      "id": 1,
      "Name": "Duluth Light Station",
      "State": "Minnesota",
      "District": "11th",
      "Latitude": 46.78333333,
      "Longitude": 92.075
    },
    {
      "id": 2,
      "Name": "Duluth North Pier Light Station",
      "State": "Minnesota",
      "District": "11th",
      "Latitude": 46.78194444,
      "Longitude": 92.08916667
    },
    {
      "id": 3,
      "Name": "Duluth Range Front Light Station",
      "State": "Minnesota",
      "District": "11th",
      "Latitude": 46.78027778,
      "Longitude": 92.08805556
    },
    {
      "id": 4,
      "Name": "Duluth Range Rear Light Station",
      "State": "Minnesota",
      "District": "11th",
      "Latitude": 46.78,
      "Longitude": 92.08888889
    },
    {
      "id": 5,
      "Name": "St. Louis River Pierhead Light Station",
      "State": "Minnesota",
      "District": "11th",
      "Latitude": 46.70972222,
      "Longitude": 92.0225
    },
    {
      "id": 6,
      "Name": "Two Harbors Light Station",
      "State": "Minnesota",
      "District": "11th",
      "Latitude": 47.01388889,
      "Longitude": 91.66361111
    },
    {
      "id": 7,
      "Name": "Two Harbors Breakwater Light Station",
      "State": "Minnesota",
      "District": "11th",
      "Latitude": 47.0125,
      "Longitude": 91.66916667
    },
    {
      "id": 8,
      "Name": "Alpena Light Station",
      "State": "Michigan",
      "District": "9th",
      "Latitude": 45.06083333,
      "Longitude": 83.42361111
    },
    {
      "id": 9,
      "Name": "Atlantic Point Light Station",
      "State": "Michigan",
      "District": "9th",
      "Latitude": 47.12722222,
      "Longitude": 88.44055556
    },
    {
      "id": 10,
      "Name": "Au Sable Pierhead - 1873",
      "State": "Michigan",
      "District": "11th",
      "Latitude": 44.40777778,
      "Longitude": 83.3125
    },
    {
      "id": 11,
      "Name": "Au Sable Pierhead - 1910",
      "State": "Michigan",
      "District": "11th",
      "Latitude": 44.40722222,
      "Longitude": 83.32111111
    },
    {
      "id": 12,
      "Name": "Belle Isle Light Station",
      "State": "Michigan",
      "District": "11th",
      "Latitude": 42.34012778,
      "Longitude": 82.96020833
    },
    {
      "id": 13,
      "Name": "Big Bay Point Light Station",
      "State": "Michigan",
      "District": "9th",
      "Latitude": 46.84194444,
      "Longitude": 87.67972222
    },
    {
      "id": 14,
      "Name": "Big Sable Light Station",
      "State": "Michigan",
      "District": "11th",
      "Latitude": 46.67488889,
      "Longitude": 86.14375
    },
    {
      "id": 15,
      "Name": "Birch Point Range Light Station",
      "State": "Michigan",
      "District": "9th",
      "Latitude": 46.43408333,
      "Longitude": 84.52347222
    },
    {
      "id": 16,
      "Name": "Brush Point Range Light Station",
      "State": "Michigan",
      "District": "9th",
      "Latitude": 46.46472222,
      "Longitude": 84.45544444
    },
    {
      "id": 17,
      "Name": "Brush Point Rear Range Light Station",
      "State": "Michigan",
      "District": "9th",
      "Latitude": 46.46472222,
      "Longitude": 84.45544444
    },
    {
      "id": 18,
      "Name": "Cedar Point Front Range Light Station",
      "State": "Michigan",
      "District": "11th",
      "Latitude": 46.43855556,
      "Longitude": 84.50252778
    },
    {
      "id": 19,
      "Name": "Cedar River Light Station",
      "State": "Michigan",
      "District": "9th",
      "Latitude": 45.41027778,
      "Longitude": 87.35305556
    },
    {
      "id": 20,
      "Name": "Charlevoix Pierhead Light Station",
      "State": "Michigan",
      "District": "9th",
      "Latitude": 45.32388889,
      "Longitude": 85.25805556
    },
    {
      "id": 21,
      "Name": "Cheboygan Crib Light Station",
      "State": "Michigan",
      "District": "9th",
      "Latitude": 45.66333333,
      "Longitude": 84.45944444
    },
    {
      "id": 22,
      "Name": "Cheboygan Light Station - 1910",
      "State": "Michigan",
      "District": "9th",
      "Latitude": 45.66916667,
      "Longitude": 84.41972222
    },
    {
      "id": 23,
      "Name": "Cheboygan River Front Range Light Station",
      "State": "Michigan",
      "District": "11th",
      "Latitude": 45.64758611,
      "Longitude": 84.47253889
    },
    {
      "id": 24,
      "Name": "Cheboygan River Rear Range Light Station",
      "State": "Michigan",
      "District": "11th",
      "Latitude": 45.64501111,
      "Longitude": 84.47489722
    },
    {
      "id": 25,
      "Name": "Cole Creek Light Station",
      "State": "Michigan",
      "District": "9th",
      "Latitude": 47.12916667,
      "Longitude": 88.62194444
    },
    {
      "id": 26,
      "Name": "Copper Harbor Front Range Light Station",
      "State": "Michigan",
      "District": "9th",
      "Latitude": 47.46888889,
      "Longitude": 87.86638889
    },
    {
      "id": 27,
      "Name": "Copper Harbor Light Station - 1910",
      "State": "Michigan",
      "District": "9th",
      "Latitude": 47.47416667,
      "Longitude": 87.86
    },
    {
      "id": 28,
      "Name": "Copper Harbor Rear Range Light Station",
      "State": "Michigan",
      "District": "9th",
      "Latitude": 47.46888889,
      "Longitude": 87.86638889
    },
    {
      "id": 29,
      "Name": "Crisp Point Light Station",
      "State": "Michigan",
      "District": "11th",
      "Latitude": 46.75294444,
      "Longitude": 85.25705556
    },
    {
      "id": 30,
      "Name": "Detour Reef Light Station - 1909",
      "State": "Michigan",
      "District": "9th",
      "Latitude": 45.956025,
      "Longitude": 83.91540556
    },
    {
      "id": 31,
      "Name": "Detroit River Light Station - 1885",
      "State": "Michigan",
      "District": "10th",
      "Latitude": 42,
      "Longitude": 83.13944444
    },
    {
      "id": 32,
      "Name": "Detroit River Light Station - 1909",
      "State": "Michigan",
      "District": "10th",
      "Latitude": 42.0025,
      "Longitude": 83.14194444
    },
    {
      "id": 33,
      "Name": "Eagle Harbor Front Range Light Station",
      "State": "Michigan",
      "District": "9th",
      "Latitude": 47.45611111,
      "Longitude": 88.15111111
    },
    {
      "id": 34,
      "Name": "Eagle Harbor Light Station - 1910",
      "State": "Michigan",
      "District": "9th",
      "Latitude": 47.46111111,
      "Longitude": 88.15861111
    },
    {
      "id": 35,
      "Name": "Eagle Harbor Rear Range Light Station",
      "State": "Michigan",
      "District": "9th",
      "Latitude": 47.45611111,
      "Longitude": 88.15111111
    },
    {
      "id": 36,
      "Name": "Ecorse Front Beacon Light Station",
      "State": "Michigan",
      "District": "10th",
      "Latitude": 42.24583333,
      "Longitude": 83.13
    },
    {
      "id": 37,
      "Name": "Ecorse Rear Beacon Light Station",
      "State": "Michigan",
      "District": "10th",
      "Latitude": 42.2475,
      "Longitude": 83.13027778
    },
    {
      "id": 38,
      "Name": "Fort Gratiot Light Station - 1912",
      "State": "Michigan",
      "District": "9th",
      "Latitude": 43.00623333,
      "Longitude": 82.42261667
    },
    {
      "id": 39,
      "Name": "Forty Mile Point Light Station",
      "State": "Michigan",
      "District": "9th",
      "Latitude": 45.65305556,
      "Longitude": 83.91333333
    },
    {
      "id": 40,
      "Name": "Frying Pan Island Light Station",
      "State": "Michigan",
      "District": "11th",
      "Latitude": 45.98693611,
      "Longitude": 83.89570833
    },
    {
      "id": 41,
      "Name": "Grand Island Harbor Front Range Light Station",
      "State": "Michigan",
      "District": "4th",
      "Latitude": 46.43888889,
      "Longitude": 86.69166667
    },
    {
      "id": 42,
      "Name": "Grand Island Light Station",
      "State": "Michigan",
      "District": "11th",
      "Latitude": 46.55997222,
      "Longitude": 86.68155556
    },
    {
      "id": 43,
      "Name": "Grand Marais Harbor of Refuge Front Range",
      "State": "Michigan",
      "District": "11th",
      "Latitude": 46.68555556,
      "Longitude": 85.98111111
    },
    {
      "id": 44,
      "Name": "Grand Traverse Bay Light Station - 1909",
      "State": "Michigan",
      "District": "9th",
      "Latitude": 45.21083333,
      "Longitude": 85.54083333
    },
    {
      "id": 45,
      "Name": "Grande Pointe au Sable Light Station",
      "State": "Michigan",
      "District": "9th",
      "Latitude": 44.05805556,
      "Longitude": 86.51472222
    },
    {
      "id": 46,
      "Name": "Granite Island Light Station",
      "State": "Michigan",
      "District": "11th",
      "Latitude": 46.72088889,
      "Longitude": 87.41185
    },
    {
      "id": 47,
      "Name": "Grassy Island North Channel Range Front Beacon",
      "State": "Michigan",
      "District": "10th",
      "Latitude": 42.22916667,
      "Longitude": 83.13583333
    },
    {
      "id": 48,
      "Name": "Grassy Island North Channel Range Rear Beacon",
      "State": "Michigan",
      "District": "10th",
      "Latitude": 42.22444444,
      "Longitude": 83.13916667
    },
    {
      "id": 49,
      "Name": "Grassy Island South Channel Range Front Beacon",
      "State": "Michigan",
      "District": "10th",
      "Latitude": 42.22,
      "Longitude": 83.13277778
    },
    {
      "id": 50,
      "Name": "Grassy Island South Channel Range Rear Beacon",
      "State": "Michigan",
      "District": "10th",
      "Latitude": 42.22444444,
      "Longitude": 83.13277778
    },
    {
      "id": 51,
      "Name": "Grosse Isle North Channel Front Beacon",
      "State": "Michigan",
      "District": "10th",
      "Latitude": 42.1675,
      "Longitude": 83.13944444
    },
    {
      "id": 52,
      "Name": "Grosse Isle North Channel Rear Beacon",
      "State": "Michigan",
      "District": "10th",
      "Latitude": 42.16388889,
      "Longitude": 83.14055556
    },
    {
      "id": 53,
      "Name": "Grosse Isle South Channel Front Beacon",
      "State": "Michigan",
      "District": "10th",
      "Latitude": 42.18472222,
      "Longitude": 83.14166667
    },
    {
      "id": 54,
      "Name": "Grosse Isle South Channel Rear Beacon",
      "State": "Michigan",
      "District": "10th",
      "Latitude": 42.18861111,
      "Longitude": 83.14166667
    },
    {
      "id": 55,
      "Name": "Gull Rock Light Station",
      "State": "Michigan",
      "District": "9th",
      "Latitude": 47.41722222,
      "Longitude": 87.66388889
    },
    {
      "id": 56,
      "Name": "Harrington Island Light Station",
      "State": "Michigan",
      "District": "9th",
      "Latitude": 47.15833333,
      "Longitude": 88.63416667
    },
    {
      "id": 57,
      "Name": "Hay Lake Channel Range No 10",
      "State": "Michigan",
      "District": "11th",
      "Latitude": 46.32497222,
      "Longitude": 84.17547222
    },
    {
      "id": 58,
      "Name": "High Point Light Station",
      "State": "Michigan",
      "District": "9th",
      "Latitude": 47.16694444,
      "Longitude": 88.63777778
    },
    {
      "id": 59,
      "Name": "Holland Pierhead Front Range Light Station",
      "State": "Michigan",
      "District": "9th",
      "Latitude": 42.77333333,
      "Longitude": 86.21666667
    },
    {
      "id": 60,
      "Name": "Holland Pierhead Rear Range Light Station",
      "State": "Michigan",
      "District": "9th",
      "Latitude": 42.77333333,
      "Longitude": 86.21666667
    },
    {
      "id": 61,
      "Name": "Huron Island Light Station",
      "State": "Michigan",
      "District": "9th",
      "Latitude": 46.96333333,
      "Longitude": 87.99861111
    },
    {
      "id": 62,
      "Name": "Isle Aux Peches Front Range Light Station",
      "State": "Michigan",
      "District": "11th",
      "Latitude": 42.361,
      "Longitude": 82.90819444
    },
    {
      "id": 63,
      "Name": "Isle Royale Light Station",
      "State": "Michigan",
      "District": "9th",
      "Latitude": 47.94833333,
      "Longitude": 88.76027778
    },
    {
      "id": 64,
      "Name": "Kalamazoo Light Station - 1910",
      "State": "Michigan",
      "District": "9th",
      "Latitude": 42.66666667,
      "Longitude": 86.21388889
    },
    {
      "id": 65,
      "Name": "Lily Pond North Light Station",
      "State": "Michigan",
      "District": "9th",
      "Latitude": 47.21694444,
      "Longitude": 88.61805556
    },
    {
      "id": 66,
      "Name": "Lily Pond South Light Station",
      "State": "Michigan",
      "District": "9th",
      "Latitude": 47.21305556,
      "Longitude": 88.61783333
    },
    {
      "id": 67,
      "Name": "Little Rapids Cut Light No 27",
      "State": "Michigan",
      "District": "11th",
      "Latitude": 46.49230556,
      "Longitude": 84.30633333
    },
    {
      "id": 68,
      "Name": "Little Sable Light Station",
      "State": "Michigan",
      "District": "12th",
      "Latitude": 43.65277778,
      "Longitude": 86.53972222
    },
    {
      "id": 69,
      "Name": "Little Traverse Light Station",
      "State": "Michigan",
      "District": "9th",
      "Latitude": 45.41861111,
      "Longitude": 84.96805556
    },
    {
      "id": 70,
      "Name": "Ludington North Breakwater Light Station",
      "State": "Michigan",
      "District": "9th",
      "Latitude": 43.95416667,
      "Longitude": 86.46638889
    },
    {
      "id": 71,
      "Name": "Ludington Pierhead Light Station",
      "State": "Michigan",
      "District": "9th",
      "Latitude": 43.95277778,
      "Longitude": 86.46277778
    },
    {
      "id": 72,
      "Name": "Ludington South Breakwater Light Station",
      "State": "Michigan",
      "District": "9th",
      "Latitude": 43.95277778,
      "Longitude": 86.46666667
    },
    {
      "id": 73,
      "Name": "Mamajuda Front Range Light Station",
      "State": "Michigan",
      "District": "10th",
      "Latitude": 42.19333333,
      "Longitude": 83.13527778
    },
    {
      "id": 74,
      "Name": "Mamajuda Rear Range Light Station",
      "State": "Michigan",
      "District": "10th",
      "Latitude": 42.19138889,
      "Longitude": 83.13555556
    },
    {
      "id": 75,
      "Name": "Manitou Light Station - 1909",
      "State": "Michigan",
      "District": "9th",
      "Latitude": 47.41982222,
      "Longitude": 87.58705278
    },
    {
      "id": 76,
      "Name": "Marquette Breakwater Light Station",
      "State": "Michigan",
      "District": "9th",
      "Latitude": 46.5365,
      "Longitude": 87.37880556
    },
    {
      "id": 77,
      "Name": "Marquette Light Station - 1919",
      "State": "Michigan",
      "District": "9th",
      "Latitude": 46.5467,
      "Longitude": 87.37603333
    },
    {
      "id": 78,
      "Name": "Mendota Light Station",
      "State": "Michigan",
      "District": "9th",
      "Latitude": 47.37413333,
      "Longitude": 87.96653611
    },
    {
      "id": 79,
      "Name": "Menominee Pierhead Light Station",
      "State": "Michigan",
      "District": "9th",
      "Latitude": 45.09722222,
      "Longitude": 87.58583333
    },
    {
      "id": 80,
      "Name": "Middle Island Light Station",
      "State": "Michigan",
      "District": "9th",
      "Latitude": 45.19083333,
      "Longitude": 83.31722222
    },
    {
      "id": 81,
      "Name": "Monroe Light Station - 1885",
      "State": "Michigan",
      "District": "10th",
      "Latitude": 41.89111111,
      "Longitude": 83.33138889
    },
    {
      "id": 82,
      "Name": "Monroe Light Station - 1909",
      "State": "Michigan",
      "District": "10th",
      "Latitude": 41.89194444,
      "Longitude": 83.33138889
    },
    {
      "id": 83,
      "Name": "Munising Front Range Light Station",
      "State": "Michigan",
      "District": "9th",
      "Latitude": 46.41511111,
      "Longitude": 86.66108333
    },
    {
      "id": 84,
      "Name": "Munising Rear Range Light Station",
      "State": "Michigan",
      "District": "9th",
      "Latitude": 46.415,
      "Longitude": 86.66083333
    },
    {
      "id": 85,
      "Name": "North Manitou Light Station",
      "State": "Michigan",
      "District": "9th",
      "Latitude": 45.06305556,
      "Longitude": 85.96333333
    },
    {
      "id": 86,
      "Name": "Old Mackinac Point Light Station",
      "State": "Michigan",
      "District": "9th",
      "Latitude": 45.78833333,
      "Longitude": 84.72777778
    },
    {
      "id": 87,
      "Name": "Ontonagon Light Station - 1910",
      "State": "Michigan",
      "District": "9th",
      "Latitude": 46.87416667,
      "Longitude": 89.32555556
    },
    {
      "id": 88,
      "Name": "Ontonagon Pierhead Light-Station",
      "State": "Michigan",
      "District": "9th",
      "Latitude": 46.88027778,
      "Longitude": 89.33055556
    },
    {
      "id": 89,
      "Name": "Osceola Point Light Station",
      "State": "Michigan",
      "District": "9th",
      "Latitude": 47.12222222,
      "Longitude": 88.59166667
    },
    {
      "id": 90,
      "Name": "Passage Island Light Station - 1886",
      "State": "Michigan",
      "District": "11th",
      "Latitude": 48.22638889,
      "Longitude": 88.36055556
    },
    {
      "id": 91,
      "Name": "Passage Island Light Station - 1910",
      "State": "Michigan",
      "District": "9th",
      "Latitude": 48.22472222,
      "Longitude": 88.36555556
    },
    {
      "id": 92,
      "Name": "Petite Point Au Sable Light Station",
      "State": "Michigan",
      "District": "11th",
      "Latitude": 43.65277778,
      "Longitude": 86.55833333
    },
    {
      "id": 93,
      "Name": "Pilgrim Point Light Station",
      "State": "Michigan",
      "District": "9th",
      "Latitude": 47.10638889,
      "Longitude": 88.51611111
    },
    {
      "id": 94,
      "Name": "Pilot Island Front Range Light Station",
      "State": "Michigan",
      "District": "11th",
      "Latitude": 46.17627222,
      "Longitude": 84.13325556
    },
    {
      "id": 95,
      "Name": "Pipe Island Light Station",
      "State": "Michigan",
      "District": "11th",
      "Latitude": 46.01642778,
      "Longitude": 83.899325
    },
    {
      "id": 96,
      "Name": "Point Iroquois Light Station - 1909",
      "State": "Michigan",
      "District": "11th",
      "Latitude": 46.48445556,
      "Longitude": 84.63208056
    },
    {
      "id": 97,
      "Name": "Port Austin Reef Light Station",
      "State": "Michigan",
      "District": "11th",
      "Latitude": 44.08226944,
      "Longitude": 82.9821
    },
    {
      "id": 98,
      "Name": "Port Sanilac Light Station",
      "State": "Michigan",
      "District": "11th",
      "Latitude": 43.42888889,
      "Longitude": 82.53
    },
    {
      "id": 99,
      "Name": "Portage Lake Ship Canals Breakwater East Light Station",
      "State": "Michigan",
      "District": "9th",
      "Latitude": 47.23444444,
      "Longitude": 88.63
    },
    {
      "id": 100,
      "Name": "Portage Lake Ship Canals Breakwater West Light Station",
      "State": "Michigan",
      "District": "9th",
      "Latitude": 47.23388889,
      "Longitude": 88.63166667
    },
    {
      "id": 101,
      "Name": "Portage Lake Ship Canal Light Station",
      "State": "Michigan",
      "District": "9th",
      "Latitude": 47.22805556,
      "Longitude": 88.62722222
    },
    {
      "id": 102,
      "Name": "Portage Lake Ship Canal Front Range Light Station",
      "State": "Michigan",
      "District": "9th",
      "Latitude": 47.19833333,
      "Longitude": 88.61666667
    },
    {
      "id": 103,
      "Name": "Portage Lake Ship Canals Pierhead Light Station",
      "State": "Michigan",
      "District": "9th",
      "Latitude": 47.23083333,
      "Longitude": 88.62916667
    },
    {
      "id": 104,
      "Name": "Portage Lake Ship Canal Rear Range Light Station",
      "State": "Michigan",
      "District": "9th",
      "Latitude": 47.2075,
      "Longitude": 88.61805556
    },
    {
      "id": 105,
      "Name": "Portage River Front Range Light Station",
      "State": "Michigan",
      "District": "9th",
      "Latitude": 46.98416667,
      "Longitude": 88.43472222
    },
    {
      "id": 106,
      "Name": "Portage River Light Number 0",
      "State": "Michigan",
      "District": "9th",
      "Latitude": 46.98916667,
      "Longitude": 88.43444444
    },
    {
      "id": 107,
      "Name": "Portage River Light Number 3 Front Range",
      "State": "Michigan",
      "District": "11th",
      "Latitude": 47.01388889,
      "Longitude": 88.45388889
    },
    {
      "id": 108,
      "Name": "Portage River Light Number 5 Front Range",
      "State": "Michigan",
      "District": "11th",
      "Latitude": 47.01222222,
      "Longitude": 88.45166667
    },
    {
      "id": 109,
      "Name": "Portage River Light Number 7 Front Range",
      "State": "Michigan",
      "District": "11th",
      "Latitude": 47.01861111,
      "Longitude": 88.47027778
    },
    {
      "id": 110,
      "Name": "Portage River Light Number 9 Front Range",
      "State": "Michigan",
      "District": "11th",
      "Latitude": 47.01777778,
      "Longitude": 88.47527778
    },
    {
      "id": 111,
      "Name": "Portage River Light Number 13 Front Range",
      "State": "Michigan",
      "District": "11th",
      "Latitude": 47.02111111,
      "Longitude": 88.47583333
    },
    {
      "id": 112,
      "Name": "Portage River Light Number 14 Front Range",
      "State": "Michigan",
      "District": "11th",
      "Latitude": 47.02611111,
      "Longitude": 88.47611111
    },
    {
      "id": 113,
      "Name": "Portage River Light Station - 1910",
      "State": "Michigan",
      "District": "9th",
      "Latitude": 45.97805556,
      "Longitude": 88.41388889
    },
    {
      "id": 114,
      "Name": "Portage River Rear Range Light Station",
      "State": "Michigan",
      "District": "9th",
      "Latitude": 46.98416667,
      "Longitude": 88.43472222
    },
    {
      "id": 115,
      "Name": "Presque Isle Harbor Front Range Light Station",
      "State": "Michigan",
      "District": "11th",
      "Latitude": 45.33777778,
      "Longitude": 83.48972222
    },
    {
      "id": 116,
      "Name": "Presque Isle Light Station - 1910",
      "State": "Michigan",
      "District": "11th",
      "Latitude": 45.35666667,
      "Longitude": 83.49194444
    },
    {
      "id": 117,
      "Name": "Princess Point Light Station",
      "State": "Michigan",
      "District": "11th",
      "Latitude": 47.01888889,
      "Longitude": 88.47527778
    },
    {
      "id": 118,
      "Name": "Rock Of Ages Light Station",
      "State": "Michigan",
      "District": "9th",
      "Latitude": 47.86659444,
      "Longitude": 89.31457222
    },
    {
      "id": 119,
      "Name": "Rouleau Point Front Range Light Station",
      "State": "Michigan",
      "District": "9th",
      "Latitude": 47.19472222,
      "Longitude": 88.61666667
    },
    {
      "id": 120,
      "Name": "Rouleau Point Rear Range Light Station",
      "State": "Michigan",
      "District": "9th",
      "Latitude": 47.19472222,
      "Longitude": 88.61666667
    },
    {
      "id": 121,
      "Name": "Round Island Light Station - 1909",
      "State": "Michigan",
      "District": "11th",
      "Latitude": 45.83743056,
      "Longitude": 84.61659167
    },
    {
      "id": 122,
      "Name": "Round Island in St. Marys River Light Station",
      "State": "Michigan",
      "District": "11th",
      "Latitude": 46.109175,
      "Longitude": 84.01966944
    },
    {
      "id": 123,
      "Name": "Sand Beach Harbor of Refuge E side N entrance",
      "State": "Michigan",
      "District": "11th",
      "Latitude": 43.85583333,
      "Longitude": 82.60555556
    },
    {
      "id": 124,
      "Name": "Sand Beach Harbor of Refuge N side E entrance",
      "State": "Michigan",
      "District": "11th",
      "Latitude": 43.84638889,
      "Longitude": 82.59583333
    },
    {
      "id": 125,
      "Name": "Sand Beach Harbor of Refuge S side E entrance",
      "State": "Michigan",
      "District": "11th",
      "Latitude": 43.84472222,
      "Longitude": 82.59444444
    },
    {
      "id": 126,
      "Name": "Sand Beach Harbor of Refuge W side N entrance",
      "State": "Michigan",
      "District": "11th",
      "Latitude": 43.85611111,
      "Longitude": 82.60666667
    },
    {
      "id": 127,
      "Name": "Sand Point Light Station",
      "State": "Michigan",
      "District": "9th",
      "Latitude": 46.78444444,
      "Longitude": 88.46722222
    },
    {
      "id": 128,
      "Name": "Seul Choix Pointe Light Station",
      "State": "Michigan",
      "District": "9th",
      "Latitude": 45.92277778,
      "Longitude": 85.9125
    },
    {
      "id": 129,
      "Name": "Six Mile Point Front Range Light Station",
      "State": "Michigan",
      "District": "11th",
      "Latitude": 46.43925,
      "Longitude": 84.26583333
    },
    {
      "id": 130,
      "Name": "Skillagallee Light Station - 1907",
      "State": "Michigan",
      "District": "9th",
      "Latitude": 45.74333333,
      "Longitude": 85.50861111
    },
    {
      "id": 131,
      "Name": "South Fox Island Light Station",
      "State": "Michigan",
      "District": "9th",
      "Latitude": 45.375,
      "Longitude": 85.82805556
    },
    {
      "id": 132,
      "Name": "South Haven Pierhead Light Station",
      "State": "Michigan",
      "District": "9th",
      "Latitude": 42.40027778,
      "Longitude": 86.28722222
    },
    {
      "id": 133,
      "Name": "South Manitou Light Station - 1910",
      "State": "Michigan",
      "District": "9th",
      "Latitude": 45.00777778,
      "Longitude": 86.09444444
    },
    {
      "id": 134,
      "Name": "Spectacle Reef Light Station",
      "State": "Michigan",
      "District": "9th",
      "Latitude": 45.77323333,
      "Longitude": 84.13776944
    },
    {
      "id": 135,
      "Name": "Squaw Island Light Station",
      "State": "Michigan",
      "District": "12th",
      "Latitude": 45.84027778,
      "Longitude": 85.58694444
    },
    {
      "id": 136,
      "Name": "Squaw Point Light Station",
      "State": "Michigan",
      "District": "12th",
      "Latitude": 45.83166667,
      "Longitude": 87.00472222
    },
    {
      "id": 137,
      "Name": "St. Clair Flats Canal Lower Light Station",
      "State": "Michigan",
      "District": "11th",
      "Latitude": 42.51936111,
      "Longitude": 82.68758611
    },
    {
      "id": 138,
      "Name": "St. Clair Flats Canal Upper Light Station",
      "State": "Michigan",
      "District": "11th",
      "Latitude": 42.53409167,
      "Longitude": 82.67023333
    },
    {
      "id": 139,
      "Name": "St. Helena Light Station - 1873",
      "State": "Michigan",
      "District": "11th",
      "Latitude": 45.85416667,
      "Longitude": 84.78055556
    },
    {
      "id": 140,
      "Name": "St. Helena Light Station - 1907",
      "State": "Michigan",
      "District": "9th",
      "Latitude": 45.85555556,
      "Longitude": 84.86277778
    },
    {
      "id": 141,
      "Name": "St. Joseph Pierhead, Front Range Light Station",
      "State": "Michigan",
      "District": "9th",
      "Latitude": 42.11555556,
      "Longitude": 86.49416667
    },
    {
      "id": 142,
      "Name": "St. Joseph Pierhead, Rear Range Light Station",
      "State": "Michigan",
      "District": "9th",
      "Latitude": 42.11555556,
      "Longitude": 86.49416667
    },
    {
      "id": 143,
      "Name": "St. Joseph Light Station - 1909",
      "State": "Michigan",
      "District": "9th",
      "Latitude": 42.10805556,
      "Longitude": 86.48388889
    },
    {
      "id": 144,
      "Name": "Stannard Rock Light Station",
      "State": "Michigan",
      "District": "11th",
      "Latitude": 47.18295833,
      "Longitude": 87.22500278
    },
    {
      "id": 145,
      "Name": "Sturgeon Point Light Station",
      "State": "Michigan",
      "District": "11th",
      "Latitude": 44.71027778,
      "Longitude": 83.26861111
    },
    {
      "id": 146,
      "Name": "Tawas Light Station",
      "State": "Michigan",
      "District": "11th",
      "Latitude": 44.25388889,
      "Longitude": 83.44916667
    },
    {
      "id": 147,
      "Name": "Thunder Bay Island Light Station - 1910",
      "State": "Michigan",
      "District": "11th",
      "Latitude": 45.0375,
      "Longitude": 83.19388889
    },
    {
      "id": 148,
      "Name": "Vidal Shoals Channel, Front Range Light Station",
      "State": "Michigan",
      "District": "11th",
      "Latitude": 46.50322222,
      "Longitude": 84.36830556
    },
    {
      "id": 149,
      "Name": "Waugoshance Light Station - 1907",
      "State": "Michigan",
      "District": "9th",
      "Latitude": 45.7875,
      "Longitude": 85.09194444
    },
    {
      "id": 150,
      "Name": "White Shoal Light Station - 1911",
      "State": "Michigan",
      "District": "12th",
      "Latitude": 45.84166667,
      "Longitude": 85.13555556
    },
    {
      "id": 151,
      "Name": "White Shoal Light Station - 1915",
      "State": "Michigan",
      "District": "12th",
      "Latitude": 45.84166667,
      "Longitude": 85.13555556
    },
    {
      "id": 152,
      "Name": "Whitefish Point Light Station - 1909",
      "State": "Michigan",
      "District": "11th",
      "Latitude": 46.77131667,
      "Longitude": 84.95719722
    },
    {
      "id": 153,
      "Name": "Windmill Point Front Range Light Station",
      "State": "Michigan",
      "District": "11th",
      "Latitude": 42.35925,
      "Longitude": 82.93075
    },
    {
      "id": 154,
      "Name": "Windmill Point Light Station - 1909",
      "State": "Michigan",
      "District": "11th",
      "Latitude": 42.35844167,
      "Longitude": 82.93014444
    }
  ]